{
    "Info": {
        "TotalResults": 180,
        "PageNumber": 0,
        "Message": null
    },
    "Events": [
        {
            "Id": 3098460,
            "Date": "2018-04-03T21:00:00",
            "Venue": {
                "Id": 2877,
                "Name": "Casbah",
                "Address": "2501 Kettner Blvd",
                "City": "San Diego",
                "State": "California",
                "StateCode": "CA",
                "Country": "US",
                "CountryCode": "US",
                "ZipCode": "92101",
                "Url": "http://www.casbahmusic.com/",
                "Latitude": 32.730042,
                "Longitude": -117.171967
            },
            "Artists": [
                {
                    "Id": 36222,
                    "Name": "The Queers"
                },
                {
                    "Id": 63512,
                    "Name": "The Dickies"
                }
            ],
            "TicketUrl": "http://www.shareasale.com/r.cfm?u=460319&b=234786&m=27601&afftrack=&urllink=https://www.ticketfly.com/purchase/event/1620771/tfly?utm_medium=api"
        },
        {
            "Id": 3085211,
            "Date": "2018-04-04T00:00:00",
            "Venue": {
                "Id": 228,
                "Name": "The Coach House",
                "Address": "33157 Camino Capistrano #C",
                "City": "San Juan Capistrano",
                "State": "California",
                "StateCode": "CA",
                "Country": "US",
                "CountryCode": "US",
                "ZipCode": "92675",
                "Url": "http://www.thecoachhouse.com/",
                "Latitude": 33.480729,
                "Longitude": -117.67145
            },
            "Artists": [
                {
                    "Id": 3973,
                    "Name": "Arlo Guthrie"
                }
            ],
            "TicketUrl": "http://ticketmaster.evyy.net/c/252938/264167/4272?u=https%3A%2F%2Fwww.ticketweb.com%2Fevent%2Farlo-guthrie-the-coach-house-tickets%2F7899095%3FREFERRAL_ID%3Dtmfeed"
        },
        {
            "Id": 3070717,
            "Date": "2018-04-04T00:00:00",
            "Venue": {
                "Id": 311,
                "Name": "Belly Up Solana Beach",
                "Address": "143 South Cedros Avenue",
                "City": "Solana Beach",
                "State": "California",
                "StateCode": "CA",
                "Country": "US",
                "CountryCode": "US",
                "ZipCode": "92075",
                "Url": "http://www.bellyup.com/",
                "Latitude": 32.9915,
                "Longitude": -117.271
            },
            "Artists": [
                {
                    "Id": 60339,
                    "Name": "Brian Fallon"
                },
                {
                    "Id": 95092,
                    "Name": "Ruston Kelly"
                }
            ],
            "TicketUrl": "http://ticketmaster.evyy.net/c/252938/264167/4272?u=http%3A%2F%2Fbrianfallon.shop.ticketstoday.com%2Fbasket.aspx%3FAction%3DAddTickets%26eventId%3D180845"
        },
        {
            "Id": 3057215,
            "Date": "2018-04-04T00:00:00",
            "Venue": {
                "Id": 43400,
                "Name": "House of Blues",
                "Address": "1055 5th Avenue",
                "City": "San Diego",
                "State": "California",
                "StateCode": "CA",
                "Country": "US",
                "CountryCode": "US",
                "ZipCode": "92101",
                "Url": "http://hob.com/venues/clubvenues/sandiego/",
                "Latitude": 32.716222,
                "Longitude": -117.160156
            },
            "Artists": [
                {
                    "Id": 95620,
                    "Name": "Chastity Brown"
                }
            ],
            "TicketUrl": "http://ticketmaster.evyy.net/c/252938/264167/4272?u=http%3A%2F%2Fconcerts.livenation.com%2Fevent%2F0A00533AA6D73183"
        },
        {
            "Id": 3087646,
            "Date": "2018-04-04T20:30:00",
            "Venue": {
                "Id": 86653,
                "Name": "Soda Bar",
                "Address": "3615 El Cajon Blvd",
                "City": "San Diego",
                "State": "California",
                "StateCode": "CA",
                "Country": "US",
                "CountryCode": "US",
                "ZipCode": "92104",
                "Url": "",
                "Latitude": 32.754914,
                "Longitude": -117.115475
            },
            "Artists": [
                {
                    "Id": 45194,
                    "Name": "Koffin Kats"
                },
                {
                    "Id": 60097,
                    "Name": "Against the Grain"
                },
                {
                    "Id": 74468,
                    "Name": "The Goddamn Gallows"
                }
            ],
            "TicketUrl": "http://www.shareasale.com/r.cfm?u=460319&b=234786&m=27601&afftrack=&urllink=https://www.ticketfly.com/purchase/event/1606974/tfly?utm_medium=api"
        },
        {
            "Id": 3087973,
            "Date": "2018-04-05T00:00:00",
            "Venue": {
                "Id": 43400,
                "Name": "House of Blues",
                "Address": "1055 5th Avenue",
                "City": "San Diego",
                "State": "California",
                "StateCode": "CA",
                "Country": "US",
                "CountryCode": "US",
                "ZipCode": "92101",
                "Url": "http://hob.com/venues/clubvenues/sandiego/",
                "Latitude": 32.716222,
                "Longitude": -117.160156
            },
            "Artists": [
                {
                    "Id": 105701,
                    "Name": "Ty Dolla $ign"
                },
                {
                    "Id": 119750,
                    "Name": "24HRS"
                }
            ],
            "TicketUrl": "http://ticketmaster.evyy.net/c/252938/264167/4272?u=http%3A%2F%2Fconcerts.livenation.com%2Fevent%2F0A005384A38C2166"
        },
        {
            "Id": 3033675,
            "Date": "2018-04-05T00:00:00",
            "Venue": {
                "Id": 228,
                "Name": "The Coach House",
                "Address": "33157 Camino Capistrano #C",
                "City": "San Juan Capistrano",
                "State": "California",
                "StateCode": "CA",
                "Country": "US",
                "CountryCode": "US",
                "ZipCode": "92675",
                "Url": "http://www.thecoachhouse.com/",
                "Latitude": 33.480729,
                "Longitude": -117.67145
            },
            "Artists": [
                {
                    "Id": 47415,
                    "Name": "Uli Jon Roth "
                }
            ],
            "TicketUrl": "http://ticketmaster.evyy.net/c/252938/264167/4272?u=http%3A%2F%2Fwww.ticketweb.com%2Ft3%2Fsale%2FSaleEventDetail%3Fdispatch%3DloadSelectionData%26eventId%3D7644745%26REFERRAL_ID%3Dtmfeed"
        },
        {
            "Id": 3086125,
            "Date": "2018-04-05T19:30:00",
            "Venue": {
                "Id": 22330,
                "Name": "Brick by Brick",
                "Address": "1130 Buenos Avenue",
                "City": "San Diego",
                "State": "California",
                "StateCode": "CA",
                "Country": "US",
                "CountryCode": "US",
                "ZipCode": "92110",
                "Url": "http://www.brickbybrick.com/",
                "Latitude": 32.76848,
                "Longitude": -117.200886
            },
            "Artists": [
                {
                    "Id": 57273,
                    "Name": "John 5"
                }
            ],
            "TicketUrl": "http://www.shareasale.com/r.cfm?u=460319&b=234786&m=27601&afftrack=&urllink=https://www.ticketfly.com/purchase/event/1604784/tfly?utm_medium=api"
        },
        {
            "Id": 3084831,
            "Date": "2018-04-05T21:30:00",
            "Venue": {
                "Id": 2877,
                "Name": "Casbah",
                "Address": "2501 Kettner Blvd",
                "City": "San Diego",
                "State": "California",
                "StateCode": "CA",
                "Country": "US",
                "CountryCode": "US",
                "ZipCode": "92101",
                "Url": "http://www.casbahmusic.com/",
                "Latitude": 32.730042,
                "Longitude": -117.171967
            },
            "Artists": [
                {
                    "Id": 39626,
                    "Name": "Electric Six"
                },
                {
                    "Id": 109798,
                    "Name": "Northern Faces"
                }
            ],
            "TicketUrl": "http://www.shareasale.com/r.cfm?u=460319&b=234786&m=27601&afftrack=&urllink=https://www.ticketfly.com/purchase/event/1602112/tfly?utm_medium=api"
        },
        {
            "Id": 3082942,
            "Date": "2018-04-06T00:00:00",
            "Venue": {
                "Id": 5365,
                "Name": "Pechanga Resort & Casino",
                "Address": "45000 Pechanga Pkwy",
                "City": "Temecula",
                "State": "California",
                "StateCode": "CA",
                "Country": "US",
                "CountryCode": "US",
                "ZipCode": "92592",
                "Url": "http://www.pechanga.com/",
                "Latitude": 33.474715,
                "Longitude": -117.130025
            },
            "Artists": [
                {
                    "Id": 63276,
                    "Name": "Chris Janson"
                },
                {
                    "Id": 103866,
                    "Name": "Cole Swindell"
                },
                {
                    "Id": 113985,
                    "Name": "Lauren Alaina"
                }
            ],
            "TicketUrl": "http://ticketmaster.evyy.net/c/252938/264167/4272?u=http%3A%2F%2Fwww.ticketmaster.com%2Fcole-swindell-reason-to-drink-tour-temecula-california-04-06-2018%2Fevent%2F0A005374C7E448B3"
        },
        {
            "Id": 3077647,
            "Date": "2018-04-06T00:00:00",
            "Venue": {
                "Id": 62398,
                "Name": "The Observatory North Park",
                "Address": "2891 University Avenue",
                "City": "San Diego",
                "State": "California",
                "StateCode": "CA",
                "Country": "US",
                "CountryCode": "US",
                "ZipCode": "92104",
                "Url": "",
                "Latitude": 32.748449,
                "Longitude": -117.131162
            },
            "Artists": [
                {
                    "Id": 112431,
                    "Name": "Ashley McBryde"
                },
                {
                    "Id": 113416,
                    "Name": "Luke Combs"
                }
            ],
            "TicketUrl": "http://ticketmaster.evyy.net/c/252938/264167/4272?u=https%3A%2F%2Fwww.ticketweb.com%2Ft3%2Fsale%2FSaleEventDetail%3Fdispatch%3DloadSelectionData%26eventId%3D7851675%26REFERRAL_ID%3Dtmfeed"
        },
        {
            "Id": 3051205,
            "Date": "2018-04-06T00:00:00",
            "Venue": {
                "Id": 140826,
                "Name": "The Merrow ",
                "Address": "1271 University Ave",
                "City": "San Diego",
                "State": "California",
                "StateCode": "CA",
                "Country": "US",
                "CountryCode": "US",
                "ZipCode": "92103",
                "Url": "",
                "Latitude": 0.0,
                "Longitude": 0.0
            },
            "Artists": [
                {
                    "Id": 47415,
                    "Name": "Uli Jon Roth "
                }
            ],
            "TicketUrl": "http://ticketmaster.evyy.net/c/252938/264167/4272?u=http%3A%2F%2Fwww.ticketweb.com%2Ft3%2Fsale%2FSaleEventDetail%3Fdispatch%3DloadSelectionData%26eventId%3D7716035%26REFERRAL_ID%3Dtmfeed"
        },
        {
            "Id": 3109521,
            "Date": "2018-04-06T00:00:00",
            "Venue": {
                "Id": 162670,
                "Name": "City Pub",
                "Address": " 4977 El Cajon Blvd",
                "City": "San Diego",
                "State": "California",
                "StateCode": "CA",
                "Country": "US",
                "CountryCode": "US",
                "ZipCode": "92115",
                "Url": "",
                "Latitude": 0.0,
                "Longitude": 0.0
            },
            "Artists": [
                {
                    "Id": 112770,
                    "Name": "Ryan Zimmerman"
                }
            ],
            "TicketUrl": ""
        },
        {
            "Id": 3100979,
            "Date": "2018-04-06T20:00:00",
            "Venue": {
                "Id": 88434,
                "Name": "House of Blues (Voodoo Stage)",
                "Address": "1055 5th Ave",
                "City": "San Diego",
                "State": "California",
                "StateCode": "CA",
                "Country": "US",
                "CountryCode": "US",
                "ZipCode": "92101",
                "Url": "",
                "Latitude": 32.716323,
                "Longitude": -117.159741
            },
            "Artists": [
                {
                    "Id": 60453,
                    "Name": "Machinedrum"
                },
                {
                    "Id": 99554,
                    "Name": "Chrome Sparks"
                }
            ],
            "TicketUrl": "http://www.ticketmaster.com/event/0A005425D1326DE7"
        },
        {
            "Id": 3100097,
            "Date": "2018-04-06T20:30:00",
            "Venue": {
                "Id": 86653,
                "Name": "Soda Bar",
                "Address": "3615 El Cajon Blvd",
                "City": "San Diego",
                "State": "California",
                "StateCode": "CA",
                "Country": "US",
                "CountryCode": "US",
                "ZipCode": "92104",
                "Url": "",
                "Latitude": 32.754914,
                "Longitude": -117.115475
            },
            "Artists": [
                {
                    "Id": 71546,
                    "Name": "Lincoln Durham"
                }
            ],
            "TicketUrl": "http://www.shareasale.com/r.cfm?u=460319&b=234786&m=27601&afftrack=&urllink=https://www.ticketfly.com/purchase/event/1615235/tfly?utm_medium=api"
        },
        {
            "Id": 3090004,
            "Date": "2018-04-06T21:00:00",
            "Venue": {
                "Id": 156120,
                "Name": "The Music Box",
                "Address": "1377 India St",
                "City": "San Diego",
                "State": "California",
                "StateCode": "CA",
                "Country": "US",
                "CountryCode": "US",
                "ZipCode": "92101",
                "Url": "http://musicboxsd.com/",
                "Latitude": 0.0,
                "Longitude": 0.0
            },
            "Artists": [
                {
                    "Id": 107105,
                    "Name": "Autograf"
                }
            ],
            "TicketUrl": "https://musicboxsd.frontgatetickets.com/event/4gqb41tj3q6hcotw"
        },
        {
            "Id": 3091585,
            "Date": "2018-04-07T00:00:00",
            "Venue": {
                "Id": 31081,
                "Name": "The Living Room Cafe",
                "Address": "",
                "City": "La Jolla",
                "State": "California",
                "StateCode": "CA",
                "Country": "US",
                "CountryCode": "US",
                "ZipCode": "92037",
                "Url": "",
                "Latitude": 0.0,
                "Longitude": 0.0
            },
            "Artists": [
                {
                    "Id": 128292,
                    "Name": "Loma"
                }
            ],
            "TicketUrl": ""
        },
        {
            "Id": 3103338,
            "Date": "2018-04-07T00:00:00",
            "Venue": {
                "Id": 62398,
                "Name": "The Observatory North Park",
                "Address": "2891 University Avenue",
                "City": "San Diego",
                "State": "California",
                "StateCode": "CA",
                "Country": "US",
                "CountryCode": "US",
                "ZipCode": "92104",
                "Url": "",
                "Latitude": 32.748449,
                "Longitude": -117.131162
            },
            "Artists": [
                {
                    "Id": 105064,
                    "Name": "What So Not"
                }
            ],
            "TicketUrl": ""
        },
        {
            "Id": 3088821,
            "Date": "2018-04-07T00:00:00",
            "Venue": {
                "Id": 5365,
                "Name": "Pechanga Resort & Casino",
                "Address": "45000 Pechanga Pkwy",
                "City": "Temecula",
                "State": "California",
                "StateCode": "CA",
                "Country": "US",
                "CountryCode": "US",
                "ZipCode": "92592",
                "Url": "http://www.pechanga.com/",
                "Latitude": 33.474715,
                "Longitude": -117.130025
            },
            "Artists": [
                {
                    "Id": 19138,
                    "Name": "Led Zepagain "
                }
            ],
            "TicketUrl": "http://ticketmaster.evyy.net/c/252938/264167/4272?u=http%3A%2F%2Fwww.ticketmaster.com%2Fled-zepagain-temecula-california-04-07-2018%2Fevent%2F0A005336A44234A7"
        },
        {
            "Id": 3107446,
            "Date": "2018-04-07T00:00:00",
            "Venue": {
                "Id": 6713,
                "Name": "Doheny State Beach",
                "Address": "25300 Dana Point Harbor Drive",
                "City": "Dana Point",
                "State": "California",
                "StateCode": "CA",
                "Country": "US",
                "CountryCode": "US",
                "ZipCode": "92629",
                "Url": "http://www.omegaevents.com",
                "Latitude": 33.462034,
                "Longitude": -117.695983
            },
            "Artists": [
                {
                    "Id": 10815,
                    "Name": "Pennywise"
                },
                {
                    "Id": 13630,
                    "Name": "Unwritten Law"
                },
                {
                    "Id": 30029,
                    "Name": "The Offspring"
                },
                {
                    "Id": 45275,
                    "Name": "The Vandals "
                },
                {
                    "Id": 45377,
                    "Name": "Me First and the Gimme Gimmes"
                },
                {
                    "Id": 80149,
                    "Name": "Los Kung Fu Monkeys"
                }
            ],
            "TicketUrl": "http://ticketmaster.evyy.net/c/252938/264167/4272?u=http%3A%2F%2Ffgtix.to%2Fsabrosodanapointtm"
        },
        {
            "Id": 3102040,
            "Date": "2018-04-07T00:00:00",
            "Venue": {
                "Id": 43400,
                "Name": "House of Blues",
                "Address": "1055 5th Avenue",
                "City": "San Diego",
                "State": "California",
                "StateCode": "CA",
                "Country": "US",
                "CountryCode": "US",
                "ZipCode": "92101",
                "Url": "http://hob.com/venues/clubvenues/sandiego/",
                "Latitude": 32.716222,
                "Longitude": -117.160156
            },
            "Artists": [
                {
                    "Id": 56522,
                    "Name": "Red Sun Rising"
                }
            ],
            "TicketUrl": "http://ticketmaster.evyy.net/c/252938/264167/4272?u=http%3A%2F%2Fconcerts.livenation.com%2Fevent%2F0A00538EEF942E03"
        },
        {
            "Id": 3100223,
            "Date": "2018-04-07T20:30:00",
            "Venue": {
                "Id": 86653,
                "Name": "Soda Bar",
                "Address": "3615 El Cajon Blvd",
                "City": "San Diego",
                "State": "California",
                "StateCode": "CA",
                "Country": "US",
                "CountryCode": "US",
                "ZipCode": "92104",
                "Url": "",
                "Latitude": 32.754914,
                "Longitude": -117.115475
            },
            "Artists": [
                {
                    "Id": 91110,
                    "Name": "Courtney Marie Andrews"
                }
            ],
            "TicketUrl": "http://ticketf.ly/2AMQ7vO"
        },
        {
            "Id": 3102707,
            "Date": "2018-04-07T21:30:00",
            "Venue": {
                "Id": 2877,
                "Name": "Casbah",
                "Address": "2501 Kettner Blvd",
                "City": "San Diego",
                "State": "California",
                "StateCode": "CA",
                "Country": "US",
                "CountryCode": "US",
                "ZipCode": "92101",
                "Url": "http://www.casbahmusic.com/",
                "Latitude": 32.730042,
                "Longitude": -117.171967
            },
            "Artists": [
                {
                    "Id": 24688,
                    "Name": "Scott H. Biram"
                }
            ],
            "TicketUrl": "http://www.shareasale.com/r.cfm?u=460319&b=234786&m=27601&afftrack=&urllink=https://www.ticketfly.com/purchase/event/1629094/tfly?utm_medium=api"
        },
        {
            "Id": 3101854,
            "Date": "2018-04-08T00:00:00",
            "Venue": {
                "Id": 197,
                "Name": "Valley View Casino Center",
                "Address": "3500 Sports Arena Blvd ",
                "City": "San Diego",
                "State": "California",
                "StateCode": "CA",
                "Country": "US",
                "CountryCode": "US",
                "ZipCode": "92101",
                "Url": "http://www.sandiegoarena.com/",
                "Latitude": 32.753689,
                "Longitude": -117.211918
            },
            "Artists": [
                {
                    "Id": 118580,
                    "Name": "Maluma"
                }
            ],
            "TicketUrl": ""
        },
        {
            "Id": 3090732,
            "Date": "2018-04-08T00:00:00",
            "Venue": {
                "Id": 43400,
                "Name": "House of Blues",
                "Address": "1055 5th Avenue",
                "City": "San Diego",
                "State": "California",
                "StateCode": "CA",
                "Country": "US",
                "CountryCode": "US",
                "ZipCode": "92101",
                "Url": "http://hob.com/venues/clubvenues/sandiego/",
                "Latitude": 32.716222,
                "Longitude": -117.160156
            },
            "Artists": [
                {
                    "Id": 107280,
                    "Name": "SoMo"
                },
                {
                    "Id": 119941,
                    "Name": "Caye"
                }
            ],
            "TicketUrl": "http://ticketmaster.evyy.net/c/252938/264167/4272?u=http%3A%2F%2Fconcerts.livenation.com%2Fevent%2F0A005388BFF52855"
        },
        {
            "Id": 3084960,
            "Date": "2018-04-08T00:00:00",
            "Venue": {
                "Id": 49798,
                "Name": "Soma",
                "Address": "3350 Sports Arena Blvd",
                "City": "San Diego",
                "State": "California",
                "StateCode": "CA",
                "Country": "US",
                "CountryCode": "US",
                "ZipCode": "92101",
                "Url": "http://www.somasandiego.com",
                "Latitude": 32.753226,
                "Longitude": -117.209335
            },
            "Artists": [
                {
                    "Id": 45943,
                    "Name": "Protest the Hero"
                }
            ],
            "TicketUrl": ""
        },
        {
            "Id": 3102059,
            "Date": "2018-04-09T20:00:00",
            "Venue": {
                "Id": 62398,
                "Name": "The Observatory North Park",
                "Address": "2891 University Avenue",
                "City": "San Diego",
                "State": "California",
                "StateCode": "CA",
                "Country": "US",
                "CountryCode": "US",
                "ZipCode": "92104",
                "Url": "",
                "Latitude": 32.748449,
                "Longitude": -117.131162
            },
            "Artists": [
                {
                    "Id": 41114,
                    "Name": "Matt & Kim"
                },
                {
                    "Id": 107569,
                    "Name": "TWINKIDS"
                },
                {
                    "Id": 108471,
                    "Name": "CRUISR"
                }
            ],
            "TicketUrl": "http://bit.ly/2Fj5tvF"
        },
        {
            "Id": 3086341,
            "Date": "2018-04-09T21:00:00",
            "Venue": {
                "Id": 2877,
                "Name": "Casbah",
                "Address": "2501 Kettner Blvd",
                "City": "San Diego",
                "State": "California",
                "StateCode": "CA",
                "Country": "US",
                "CountryCode": "US",
                "ZipCode": "92101",
                "Url": "http://www.casbahmusic.com/",
                "Latitude": 32.730042,
                "Longitude": -117.171967
            },
            "Artists": [
                {
                    "Id": 103120,
                    "Name": "Kevin Morby"
                },
                {
                    "Id": 118949,
                    "Name": "Hand Habits"
                }
            ],
            "TicketUrl": "http://www.shareasale.com/r.cfm?u=460319&b=234786&m=27601&afftrack=&urllink=https://www.ticketfly.com/purchase/event/1605007/tfly?utm_medium=api"
        },
        {
            "Id": 3101118,
            "Date": "2018-04-10T19:00:00",
            "Venue": {
                "Id": 154414,
                "Name": "Quartyard ",
                "Address": "1102 Market St",
                "City": "San Diego",
                "State": "California",
                "StateCode": "CA",
                "Country": "US",
                "CountryCode": "US",
                "ZipCode": "92101",
                "Url": "",
                "Latitude": 0.0,
                "Longitude": 0.0
            },
            "Artists": [
                {
                    "Id": 111773,
                    "Name": "Frankie Cosmos"
                },
                {
                    "Id": 118533,
                    "Name": "IAN SWEET"
                },
                {
                    "Id": 119259,
                    "Name": "Lomelda"
                }
            ],
            "TicketUrl": "http://www.shareasale.com/r.cfm?u=460319&b=234786&m=27601&afftrack=&urllink=https://www.ticketfly.com/purchase/event/1626826/tfly?utm_medium=api"
        },
        {
            "Id": 3102712,
            "Date": "2018-04-10T20:30:00",
            "Venue": {
                "Id": 86653,
                "Name": "Soda Bar",
                "Address": "3615 El Cajon Blvd",
                "City": "San Diego",
                "State": "California",
                "StateCode": "CA",
                "Country": "US",
                "CountryCode": "US",
                "ZipCode": "92104",
                "Url": "",
                "Latitude": 32.754914,
                "Longitude": -117.115475
            },
            "Artists": [
                {
                    "Id": 125482,
                    "Name": "Hannah Wicklund & The Steppin Stones"
                },
                {
                    "Id": 125484,
                    "Name": "The High Divers"
                }
            ],
            "TicketUrl": "http://www.shareasale.com/r.cfm?u=460319&b=234786&m=27601&afftrack=&urllink=https://www.ticketfly.com/purchase/event/1624102/tfly?utm_medium=api"
        },
        {
            "Id": 3109545,
            "Date": "2018-04-11T00:00:00",
            "Venue": {
                "Id": 156120,
                "Name": "The Music Box",
                "Address": "1377 India St",
                "City": "San Diego",
                "State": "California",
                "StateCode": "CA",
                "Country": "US",
                "CountryCode": "US",
                "ZipCode": "92101",
                "Url": "http://musicboxsd.com/",
                "Latitude": 0.0,
                "Longitude": 0.0
            },
            "Artists": [
                {
                    "Id": 45154,
                    "Name": "Bilal"
                }
            ],
            "TicketUrl": ""
        },
        {
            "Id": 3107491,
            "Date": "2018-04-12T00:00:00",
            "Venue": {
                "Id": 26061,
                "Name": "San Diego Civic Theatre",
                "Address": "3rd Ave. & B Street",
                "City": "San Diego",
                "State": "California",
                "StateCode": "CA",
                "Country": "US",
                "CountryCode": "US",
                "ZipCode": "92101",
                "Url": "http://sdcivic.org/ ",
                "Latitude": 32.71785,
                "Longitude": -117.16198
            },
            "Artists": [
                {
                    "Id": 7052,
                    "Name": "David Byrne"
                }
            ],
            "TicketUrl": "http://ticketmaster.evyy.net/c/252938/264167/4272?u=http%3A%2F%2Fwww.ticketmaster.com%2Fdavid-byrne-san-diego-california-04-12-2018%2Fevent%2F0A005433E91D3C5A"
        },
        {
            "Id": 3103637,
            "Date": "2018-04-12T00:00:00",
            "Venue": {
                "Id": 228,
                "Name": "The Coach House",
                "Address": "33157 Camino Capistrano #C",
                "City": "San Juan Capistrano",
                "State": "California",
                "StateCode": "CA",
                "Country": "US",
                "CountryCode": "US",
                "ZipCode": "92675",
                "Url": "http://www.thecoachhouse.com/",
                "Latitude": 33.480729,
                "Longitude": -117.67145
            },
            "Artists": [
                {
                    "Id": 67504,
                    "Name": "Al Jardine"
                }
            ],
            "TicketUrl": "http://ticketmaster.evyy.net/c/252938/264167/4272?u=https%3A%2F%2Fwww.ticketweb.com%2Fevent%2Fal-jardine-the-coach-house-tickets%2F8045215%3FREFERRAL_ID%3Dtmfeed"
        },
        {
            "Id": 3088013,
            "Date": "2018-04-12T00:00:00",
            "Venue": {
                "Id": 311,
                "Name": "Belly Up Solana Beach",
                "Address": "143 South Cedros Avenue",
                "City": "Solana Beach",
                "State": "California",
                "StateCode": "CA",
                "Country": "US",
                "CountryCode": "US",
                "ZipCode": "92075",
                "Url": "http://www.bellyup.com/",
                "Latitude": 32.9915,
                "Longitude": -117.271
            },
            "Artists": [
                {
                    "Id": 47299,
                    "Name": "Elephant Revival "
                }
            ],
            "TicketUrl": ""
        },
        {
            "Id": 3106049,
            "Date": "2018-04-13T00:00:00",
            "Venue": {
                "Id": 228,
                "Name": "The Coach House",
                "Address": "33157 Camino Capistrano #C",
                "City": "San Juan Capistrano",
                "State": "California",
                "StateCode": "CA",
                "Country": "US",
                "CountryCode": "US",
                "ZipCode": "92675",
                "Url": "http://www.thecoachhouse.com/",
                "Latitude": 33.480729,
                "Longitude": -117.67145
            },
            "Artists": [
                {
                    "Id": 31106,
                    "Name": "Marc Cohn"
                }
            ],
            "TicketUrl": "http://ticketmaster.evyy.net/c/252938/264167/4272?u=https%3A%2F%2Fwww.ticketweb.com%2Fevent%2Fmarc-cohn-the-coach-house-tickets%2F7970195%3FREFERRAL_ID%3Dtmfeed"
        },
        {
            "Id": 3102478,
            "Date": "2018-04-13T00:00:00",
            "Venue": {
                "Id": 2850,
                "Name": "Humphrey's Concerts By The Bay",
                "Address": "2241 Shelter Island Drive ",
                "City": "San Diego",
                "State": "California",
                "StateCode": "CA",
                "Country": "US",
                "CountryCode": "US",
                "ZipCode": "92106",
                "Url": "http://www.humphreysconcerts.com/",
                "Latitude": 32.7173,
                "Longitude": -117.222
            },
            "Artists": [
                {
                    "Id": 107215,
                    "Name": "Scott Bradlee's Postmodern Jukebox"
                }
            ],
            "TicketUrl": "http://ticketmaster.evyy.net/c/252938/264167/4272?u=http%3A%2F%2Fwww.ticketmaster.com%2Fscott-bradlees-postmodern-jukebox-san-diego-california-04-13-2018%2Fevent%2F0A0053798B3E10CD"
        },
        {
            "Id": 3101721,
            "Date": "2018-04-13T00:00:00",
            "Venue": {
                "Id": 29199,
                "Name": "Viejas Arena",
                "Address": "5500 Canyon Crest Dr",
                "City": "San Diego",
                "State": "California",
                "StateCode": "CA",
                "Country": "US",
                "CountryCode": "US",
                "ZipCode": "92182",
                "Url": "http://www.cox-arena.com/",
                "Latitude": 32.7769791,
                "Longitude": -117.0685526
            },
            "Artists": [
                {
                    "Id": 68028,
                    "Name": "Gloria Trevi"
                }
            ],
            "TicketUrl": "http://ticketmaster.evyy.net/c/252938/264167/4272?u=http%3A%2F%2Fwww.ticketmaster.com%2Fgloria-trevi-vs-alejandra-guzman-san-diego-california-04-13-2018%2Fevent%2F0A005429A4B62286"
        },
        {
            "Id": 3106507,
            "Date": "2018-04-13T00:00:00",
            "Venue": {
                "Id": 156120,
                "Name": "The Music Box",
                "Address": "1377 India St",
                "City": "San Diego",
                "State": "California",
                "StateCode": "CA",
                "Country": "US",
                "CountryCode": "US",
                "ZipCode": "92101",
                "Url": "http://musicboxsd.com/",
                "Latitude": 0.0,
                "Longitude": 0.0
            },
            "Artists": [
                {
                    "Id": 6158,
                    "Name": "The Steely Damned"
                }
            ],
            "TicketUrl": ""
        },
        {
            "Id": 3102504,
            "Date": "2018-04-13T20:30:00",
            "Venue": {
                "Id": 86653,
                "Name": "Soda Bar",
                "Address": "3615 El Cajon Blvd",
                "City": "San Diego",
                "State": "California",
                "StateCode": "CA",
                "Country": "US",
                "CountryCode": "US",
                "ZipCode": "92104",
                "Url": "",
                "Latitude": 32.754914,
                "Longitude": -117.115475
            },
            "Artists": [
                {
                    "Id": 103332,
                    "Name": "Yamantaka // Sonic Titan"
                }
            ],
            "TicketUrl": "http://www.shareasale.com/r.cfm?u=460319&b=234786&m=27601&afftrack=&urllink=https://www.ticketfly.com/purchase/event/1624117/tfly?utm_medium=api"
        },
        {
            "Id": 3085462,
            "Date": "2018-04-14T00:00:00",
            "Venue": {
                "Id": 86756,
                "Name": "Balboa Theatre",
                "Address": "868 Fourth Avenue",
                "City": "San Diego",
                "State": "California",
                "StateCode": "CA",
                "Country": "US",
                "CountryCode": "US",
                "ZipCode": "92101",
                "Url": "http://www.juniortheatre.com/",
                "Latitude": 32.714333,
                "Longitude": -117.161225
            },
            "Artists": [
                {
                    "Id": 51627,
                    "Name": "Jon Foreman"
                }
            ],
            "TicketUrl": "http://ticketmaster.evyy.net/c/252938/264167/4272?u=http%3A%2F%2Fwww.ticketmaster.com%2Fjon-foreman-the-25-in-24-san-diego-california-04-14-2018%2Fevent%2F0A00537CCEBF35DA"
        },
        {
            "Id": 3085217,
            "Date": "2018-04-14T00:00:00",
            "Venue": {
                "Id": 228,
                "Name": "The Coach House",
                "Address": "33157 Camino Capistrano #C",
                "City": "San Juan Capistrano",
                "State": "California",
                "StateCode": "CA",
                "Country": "US",
                "CountryCode": "US",
                "ZipCode": "92675",
                "Url": "http://www.thecoachhouse.com/",
                "Latitude": 33.480729,
                "Longitude": -117.67145
            },
            "Artists": [
                {
                    "Id": 50207,
                    "Name": "Melissa Manchester"
                }
            ],
            "TicketUrl": "http://ticketmaster.evyy.net/c/252938/264167/4272?u=https%3A%2F%2Fwww.ticketweb.com%2Fevent%2Fmelissa-manchester-the-coach-house-tickets%2F7896185%3FREFERRAL_ID%3Dtmfeed"
        },
        {
            "Id": 3084336,
            "Date": "2018-04-14T21:30:00",
            "Venue": {
                "Id": 2877,
                "Name": "Casbah",
                "Address": "2501 Kettner Blvd",
                "City": "San Diego",
                "State": "California",
                "StateCode": "CA",
                "Country": "US",
                "CountryCode": "US",
                "ZipCode": "92101",
                "Url": "http://www.casbahmusic.com/",
                "Latitude": 32.730042,
                "Longitude": -117.171967
            },
            "Artists": [
                {
                    "Id": 85407,
                    "Name": "The Soft Moon"
                },
                {
                    "Id": 122696,
                    "Name": "Boy Harsher"
                }
            ],
            "TicketUrl": "http://www.shareasale.com/r.cfm?u=460319&b=234786&m=27601&afftrack=&urllink=https://www.ticketfly.com/purchase/event/1602569/tfly?utm_medium=api"
        },
        {
            "Id": 3064948,
            "Date": "2018-04-15T00:00:00",
            "Venue": {
                "Id": 228,
                "Name": "The Coach House",
                "Address": "33157 Camino Capistrano #C",
                "City": "San Juan Capistrano",
                "State": "California",
                "StateCode": "CA",
                "Country": "US",
                "CountryCode": "US",
                "ZipCode": "92675",
                "Url": "http://www.thecoachhouse.com/",
                "Latitude": 33.480729,
                "Longitude": -117.67145
            },
            "Artists": [
                {
                    "Id": 17363,
                    "Name": "Los Lonely Boys"
                }
            ],
            "TicketUrl": "http://ticketmaster.evyy.net/c/252938/264167/4272?u=http%3A%2F%2Fwww.ticketweb.com%2Ft3%2Fsale%2FSaleEventDetail%3Fdispatch%3DloadSelectionData%26eventId%3D7747205%26REFERRAL_ID%3Dtmfeed"
        },
        {
            "Id": 3090743,
            "Date": "2018-04-15T20:00:00",
            "Venue": {
                "Id": 86756,
                "Name": "Balboa Theatre",
                "Address": "868 Fourth Avenue",
                "City": "San Diego",
                "State": "California",
                "StateCode": "CA",
                "Country": "US",
                "CountryCode": "US",
                "ZipCode": "92101",
                "Url": "http://www.juniortheatre.com/",
                "Latitude": 32.714333,
                "Longitude": -117.161225
            },
            "Artists": [
                {
                    "Id": 125696,
                    "Name": "The Righteous Brothers"
                }
            ],
            "TicketUrl": "http://ticketmaster.evyy.net/c/252938/264167/4272?u=http%3A%2F%2Fwww.ticketmaster.com%2Fthe-righteous-brothers-san-diego-california-04-15-2018%2Fevent%2F0A005386EB5427F3"
        },
        {
            "Id": 3104028,
            "Date": "2018-04-15T20:00:00",
            "Venue": {
                "Id": 86653,
                "Name": "Soda Bar",
                "Address": "3615 El Cajon Blvd",
                "City": "San Diego",
                "State": "California",
                "StateCode": "CA",
                "Country": "US",
                "CountryCode": "US",
                "ZipCode": "92104",
                "Url": "",
                "Latitude": 32.754914,
                "Longitude": -117.115475
            },
            "Artists": [
                {
                    "Id": 78523,
                    "Name": "Psychotica"
                }
            ],
            "TicketUrl": "http://www.shareasale.com/r.cfm?u=460319&b=234786&m=27601&afftrack=&urllink=https://www.ticketfly.com/purchase/event/1628716/tfly?utm_medium=api"
        },
        {
            "Id": 3104277,
            "Date": "2018-04-16T00:00:00",
            "Venue": {
                "Id": 311,
                "Name": "Belly Up Solana Beach",
                "Address": "143 South Cedros Avenue",
                "City": "Solana Beach",
                "State": "California",
                "StateCode": "CA",
                "Country": "US",
                "CountryCode": "US",
                "ZipCode": "92075",
                "Url": "http://www.bellyup.com/",
                "Latitude": 32.9915,
                "Longitude": -117.271
            },
            "Artists": [
                {
                    "Id": 109073,
                    "Name": "Ibeyi"
                }
            ],
            "TicketUrl": ""
        },
        {
            "Id": 3102864,
            "Date": "2018-04-17T00:00:00",
            "Venue": {
                "Id": 26061,
                "Name": "San Diego Civic Theatre",
                "Address": "3rd Ave. & B Street",
                "City": "San Diego",
                "State": "California",
                "StateCode": "CA",
                "Country": "US",
                "CountryCode": "US",
                "ZipCode": "92101",
                "Url": "http://sdcivic.org/ ",
                "Latitude": 32.71785,
                "Longitude": -117.16198
            },
            "Artists": [
                {
                    "Id": 7052,
                    "Name": "David Byrne"
                }
            ],
            "TicketUrl": "http://ticketmaster.evyy.net/c/252938/264167/4272?u=http%3A%2F%2Fwww.ticketmaster.com%2Fdavid-byrne-american-utopia-tour-san-diego-california-04-17-2018%2Fevent%2F0A005425D2D46E54"
        },
        {
            "Id": 3107618,
            "Date": "2018-04-18T00:00:00",
            "Venue": {
                "Id": 62398,
                "Name": "The Observatory North Park",
                "Address": "2891 University Avenue",
                "City": "San Diego",
                "State": "California",
                "StateCode": "CA",
                "Country": "US",
                "CountryCode": "US",
                "ZipCode": "92104",
                "Url": "",
                "Latitude": 32.748449,
                "Longitude": -117.131162
            },
            "Artists": [
                {
                    "Id": 118125,
                    "Name": "Tash Sultana"
                }
            ],
            "TicketUrl": ""
        },
        {
            "Id": 3086269,
            "Date": "2018-04-18T00:00:00",
            "Venue": {
                "Id": 43400,
                "Name": "House of Blues",
                "Address": "1055 5th Avenue",
                "City": "San Diego",
                "State": "California",
                "StateCode": "CA",
                "Country": "US",
                "CountryCode": "US",
                "ZipCode": "92101",
                "Url": "http://hob.com/venues/clubvenues/sandiego/",
                "Latitude": 32.716222,
                "Longitude": -117.160156
            },
            "Artists": [
                {
                    "Id": 17794,
                    "Name": "Dashboard Confessional"
                },
                {
                    "Id": 108222,
                    "Name": "Beach Slang"
                }
            ],
            "TicketUrl": "http://ticketmaster.evyy.net/c/252938/264167/4272?u=http%3A%2F%2Fconcerts.livenation.com%2Fevent%2F0A005374E0184BDD"
        },
        {
            "Id": 3103414,
            "Date": "2018-04-18T21:00:00",
            "Venue": {
                "Id": 156120,
                "Name": "The Music Box",
                "Address": "1377 India St",
                "City": "San Diego",
                "State": "California",
                "StateCode": "CA",
                "Country": "US",
                "CountryCode": "US",
                "ZipCode": "92101",
                "Url": "http://musicboxsd.com/",
                "Latitude": 0.0,
                "Longitude": 0.0
            },
            "Artists": [
                {
                    "Id": 70947,
                    "Name": "Frankie Rose"
                },
                {
                    "Id": 104774,
                    "Name": "Alvvays"
                }
            ],
            "TicketUrl": "https://musicboxsd.frontgatetickets.com/event/rb6gndqaphw5ofmb"
        }
    ]
}